School Name,Region,Starting Median Salary,Mid-Career Median Salary,Mid-Career 10th Percentile Salary,Mid-Career 25th Percentile Salary,Mid-Career 75th Percentile Salary,Mid-Career 90th Percentile Salary,Longitude,Latitude
Stanford University,California,"$70,400","$129,000","$68,400","$93,100","$184,000","$257,000",-122.164434,37.429532
California Institute of Technology (CIT),California,"$75,500","$123,000",N/A,"$104,000","$161,000",N/A,-118.12574,34.139275
Harvey Mudd College,California,"$71,800","$122,000",N/A,"$96,000","$180,000",N/A,-117.710594,34.106137
"University of California, Berkeley",California,"$59,900","$112,000","$59,500","$81,000","$149,000","$201,000",-122.260463,37.871918
Occidental College,California,"$51,900","$105,000",N/A,"$54,800","$157,000",N/A,-118.210783,34.126224
"California Polytechnic State University, San Luis Obispo",California,"$57,200","$101,000","$55,000","$74,700","$133,000","$178,000",-120.657311,35.299513
University of California at Los Angeles (UCLA),California,"$52,600","$101,000","$51,300","$72,500","$139,000","$193,000",-118.443901,34.068892
"University of California, San Diego (UCSD)",California,"$51,100","$101,000","$51,700","$75,400","$131,000","$177,000",-117.237793,32.876598
Pomona College,California,"$48,600","$101,000",N/A,"$63,300","$161,000",N/A,-117.711944,34.098298
University of Southern California (USC),California,"$54,800","$99,600","$49,700","$73,800","$140,000","$201,000",-118.284169,34.021281
"University of California, Davis",California,"$52,300","$99,600","$52,000","$71,600","$135,000","$202,000",-121.751958,38.539895
"University of California, Irvine (UCI)",California,"$48,300","$96,700","$47,800","$66,000","$123,000","$172,000",-117.841248,33.648434
San Jose State University (SJSU),California,"$53,500","$95,600","$50,700","$70,500","$122,000","$156,000",-121.880621,37.336569
"University of California, Santa Barbara (UCSB)",California,"$50,500","$95,000","$51,300","$71,200","$129,000","$173,000",-119.846426,34.416297
"California State University (CSU), Chico",California,"$47,400","$88,100","$46,800","$62,800","$122,000","$154,000",-121.844859,39.729712
"California State University, Fullerton (CSUF)",California,"$45,700","$87,000","$45,400","$62,500","$119,000","$158,000",-117.885349,33.883627
San Francisco State University (SFSU),California,"$47,300","$86,400","$45,100","$62,700","$114,000","$150,000",-122.477905,37.721345
San Diego State University (SDSU),California,"$46,200","$85,200","$45,500","$61,800","$116,000","$158,000",-117.071228,32.77525
"California State University, Long Beach (CSULB)",California,"$45,100","$84,700","$47,400","$62,500","$113,000","$154,000",-118.11204,33.782818
"California State University, East Bay (CSUEB)",California,"$49,200","$84,300","$46,000","$62,400","$115,000","$155,000",-122.058073,37.65707
"University of California, Santa Cruz (UCSC)",California,"$44,700","$84,100","$46,100","$62,000","$121,000","$165,000",-122.058801,36.995584
"California State University, Sacramento (CSUS)",California,"$47,800","$82,400","$42,900","$59,600","$111,000","$154,000",-121.42194,38.55745
"University of California, Riverside (UCR)",California,"$46,800","$81,300","$37,200","$59,900","$109,000","$134,000",-117.331098,33.97588
"California State University, Northridge (CSUN)",California,"$45,500","$80,400","$44,500","$57,800","$108,000","$153,000",-118.526817,34.23671
"California State University, Dominguez Hills (CSUDH)",California,"$42,700","$72,100","$30,800","$47,000","$92,200","$132,000",-118.259316,33.86524
"California State University (CSU), Stanislaus",California,"$38,000","$71,400",N/A,"$50,500","$94,100",N/A,-120.852511,37.52577
Humboldt State University,California,"$42,600","$71,300","$36,000","$56,300","$94,400","$117,000",-124.0814,40.8741
Thomas Aquinas College,California,"$41,500","$67,500",N/A,"$44,600","$93,100",N/A,-119.087141,34.429009
Colorado School of Mines,Western,"$58,100","$106,000","$62,200","$87,900","$142,000","$201,000",-105.227148,39.75079
University of Colorado - Boulder (UCB),Western,"$47,100","$97,600","$51,600","$69,000","$128,000","$187,000",-105.270823,40.008781
New Mexico Institute of Mining and Technology (New Mexico Tech),Western,"$51,000","$93,400",N/A,"$67,400","$123,000",N/A,-106.907491,34.066035
Brigham Young University (BYU),Western,"$49,400","$88,600","$50,600","$68,500","$119,000","$164,000",-111.649281,40.250851
University of Arizona,Western,"$47,500","$86,100","$44,800","$61,700","$117,000","$160,000",-110.950815,32.232672
University of Washington (UW),Western,"$48,800","$85,300","$47,000","$59,800","$115,000","$149,000",-122.313115,47.656213
Washington State University (WSU),Western,"$45,300","$84,700","$43,600","$59,000","$113,000","$162,000",-117.158168,46.730448
University of Colorado - Denver,Western,"$46,100","$84,400","$46,400","$58,600","$105,000","$144,000",-104.837722,39.745149
Arizona State University (ASU),Western,"$47,400","$84,100","$44,600","$60,700","$114,000","$163,000",-111.934383,33.417721
Oregon State University (OSU),Western,"$45,100","$83,300","$46,900","$64,000","$113,000","$146,000",-123.274723,44.56395
University of Utah,Western,"$45,400","$83,200","$43,000","$58,400","$116,000","$148,000",-111.846044,40.762484
"University of Nevada, Reno (UNR)",Western,"$46,500","$82,900","$41,900","$54,600","$113,000","$143,000",-119.815377,39.543642
Seattle University,Western,"$48,300","$82,800","$50,600","$62,400","$110,000","$150,000",-122.3197,47.610138
University of Idaho,Western,"$44,900","$82,000","$43,000","$56,700","$104,000","$142,000",-117.024296,46.726894
University of New Mexico (UNM),Western,"$41,600","$81,600","$41,800","$59,100","$105,000","$141,000",-106.620155,35.083868
University of Puget Sound,Western,"$46,600","$81,500","$48,900","$60,100","$104,000","$137,000",-122.479714,47.263651
Colorado College (CC),Western,"$38,500","$81,400",N/A,"$43,000","$148,000",N/A,-104.822697,38.84886
Reed College,Western,"$40,500","$81,100",N/A,"$67,400","$101,000",N/A,-122.63064,45.480376
Whitman College,Western,"$43,500","$80,100",N/A,"$64,800","$111,000",N/A,-118.33016,46.07135
New Mexico State University,Western,"$44,300","$79,500","$37,400","$53,800","$102,000","$131,000",-106.752069,32.281568
Colorado State University (CSU),Western,"$44,800","$79,000","$43,800","$57,100","$112,000","$150,000",-104.898261,39.60942
University of Wyoming (UW),Western,"$44,500","$78,700","$41,500","$54,000","$105,000","$145,000",-105.57931,41.311773
Utah State University,Western,"$43,800","$78,700","$41,600","$55,400","$101,000","$132,000",-111.81391,41.740748
University of Oregon,Western,"$42,200","$78,400","$38,100","$56,200","$117,000","$186,000",-123.075792,44.045146
Montana State University - Bozeman,Western,"$46,600","$77,500","$40,200","$58,100","$111,000","$151,000",-111.048812,45.666726
Gonzaga University,Western,"$44,900","$76,000","$47,000","$57,400","$103,000","$138,000",-117.403062,47.668144
University of Hawaii,Western,"$43,800","$76,000","$40,400","$56,300","$104,000","$128,000",-157.818979,21.298598
Western Washington University,Western,"$42,700","$75,400","$41,300","$56,700","$99,200","$119,000",-122.484873,48.737236
Regis University,Western,"$48,300","$73,800","$41,000","$55,500","$94,800","$117,000",-105.031385,39.78976
Idaho State University,Western,"$44,900","$73,400","$35,400","$49,600","$101,000","$143,000",-112.429084,42.864108
"University of Alaska, Anchorage",Western,"$45,900","$72,600","$39,800","$56,600","$99,300","$137,000",-149.82619,61.190163
Lewis & Clark College,Western,"$38,900","$72,600","$38,200","$53,400","$104,000","$140,000",-122.672478,45.450547
University of Montana,Western,"$37,300","$71,900","$37,000","$51,500","$96,400","$138,000",-113.982912,46.859312
"University of Nevada, Las Vegas (UNLV)",Western,"$45,200","$71,600","$39,000","$52,400","$100,000","$128,000",-115.141153,36.106994
Portland State University (PSU),Western,"$42,600","$70,900","$40,700","$52,300","$94,400","$123,000",-122.683553,45.511229
Eastern Washington University,Western,"$38,600","$70,900","$36,000","$50,500","$93,100","$117,000",-117.583808,47.490667
Fort Lewis College,Western,"$42,000","$69,800",N/A,"$55,000","$94,000",N/A,-107.867003,37.275428
Boise State University (BSU),Western,"$40,800","$69,500","$37,400","$48,700","$87,500","$110,000",-116.205789,43.604403
Utah Valley State College,Western,"$42,400","$67,100",N/A,"$44,100","$84,900",N/A,-111.717058,40.278512
Evergreen State College,Western,"$39,500","$63,900","$38,800","$47,200","$91,600","$120,000",-122.977492,47.07382
Southern Utah University,Western,"$41,900","$56,500",N/A,"$39,700","$78,400",N/A,-113.070146,37.674617
Montana State University - Billings,Western,"$37,900","$50,600",N/A,"$31,800","$78,500",N/A,-108.523009,45.796896
University of Notre Dame,Midwestern,"$56,300","$116,000","$66,400","$85,100","$163,000","$235,000",-86.238959,41.703058
University Of Chicago,Midwestern,"$53,400","$113,000","$62,200","$83,300","$174,000","$255,000",-87.601196,41.78917
Carleton College,Midwestern,"$47,500","$103,000",N/A,"$69,400","$141,000",N/A,-93.154662,44.462304
Illinois Institute of Technology (IIT),Midwestern,"$56,000","$97,800","$56,100","$77,400","$121,000","$165,000",-87.627321,41.8313
Case Western Reserve University,Midwestern,"$56,200","$96,500","$54,900","$76,500","$123,000","$168,000",-81.605769,41.500812
University of Illinois at Urbana-Champaign (UIUC),Midwestern,"$52,900","$96,100","$48,200","$68,900","$132,000","$177,000",-88.230309,40.108864
Northwestern University,Midwestern,"$52,700","$95,900","$51,900","$69,100","$144,000","$205,000",-87.679858,42.050356
University of Missouri - Rolla (UMR),Midwestern,"$57,100","$95,800","$67,600","$80,400","$122,000","$166,000",-91.775583,37.953426
South Dakota School of Mines & Technology,Midwestern,"$55,800","$93,400","$71,500","$81,900","$122,000","$147,000",-103.205753,44.075439
University of Michigan,Midwestern,"$52,700","$93,000","$50,900","$69,400","$128,000","$182,000",-83.742769,42.275921
Purdue University,Midwestern,"$51,400","$90,500","$49,900","$67,400","$121,000","$168,000",-86.914435,40.428206
Marquette University,Midwestern,"$48,500","$88,400","$49,500","$67,400","$121,000","$184,000",-87.927961,43.03903
DePauw University,Midwestern,"$41,400","$88,200","$49,500","$57,400","$133,000","$185,000",-86.863556,39.63953
University of Wisconsin (UW) - Madison,Midwestern,"$48,900","$87,800","$47,400","$62,400","$118,000","$170,000",-89.405356,43.073858
Bradley University,Midwestern,"$47,000","$87,300","$45,900","$64,900","$113,000","$151,000",-89.61462,40.697605
St. Olaf College,Midwestern,"$45,300","$86,200","$41,300","$61,000","$120,000","$185,000",-93.183633,44.462884
Michigan State University (MSU),Midwestern,"$46,300","$85,300","$44,200","$61,500","$119,000","$170,000",-84.476111,42.73212
DePaul University,Midwestern,"$46,400","$84,800","$50,300","$63,900","$115,000","$160,000",-87.62724,41.877618
Iowa State University,Midwestern,"$45,400","$84,600","$44,400","$60,000","$109,000","$147,000",-93.648504,42.026212
University of Minnesota,Midwestern,"$46,200","$84,200","$49,000","$63,200","$112,000","$148,000",-93.235352,44.977886
"Indiana University (IU), Bloomington",Midwestern,"$46,300","$84,000","$43,600","$60,400","$119,000","$178,000",-86.526904,39.166383
University of Iowa (UI),Midwestern,"$44,700","$83,900","$43,300","$61,100","$116,000","$163,000",-91.536425,41.661935
Ohio State University (OSU),Midwestern,"$44,900","$83,700","$45,500","$60,700","$116,000","$162,000",-83.009001,39.998389
Denison University,Midwestern,"$42,000","$83,500",N/A,"$62,100","$122,000",N/A,-82.520625,40.072582
University of Illinois at Chicago,Midwestern,"$47,500","$81,700","$44,700","$58,800","$110,000","$146,000",-87.651145,41.872651
Oberlin College,Midwestern,"$43,400","$81,600",N/A,"$46,400","$128,000",N/A,-82.221786,41.29474
University of Kansas,Midwestern,"$42,400","$81,600","$44,800","$57,200","$115,000","$156,000",-95.247567,38.958549
University of Missouri - Columbia,Midwestern,"$41,700","$81,000","$43,500","$57,100","$111,000","$156,000",-92.326429,38.941015
University of Nebraska,Midwestern,"$45,700","$80,900","$42,200","$56,600","$113,000","$156,000",-96.700508,40.817598
Northern Illinois University (NIU),Midwestern,"$43,600","$80,800","$43,900","$60,200","$111,000","$161,000",-88.766428,41.933869
Gustavus Adolphus College,Midwestern,"$44,500","$80,600",N/A,"$49,300","$101,000",N/A,-93.971928,44.324968
University of North Dakota,Midwestern,"$44,000","$80,600","$43,400","$56,400","$111,000","$157,000",-97.071738,47.921654
Kansas State University (KSU),Midwestern,"$43,300","$79,000","$37,200","$54,100","$106,000","$138,000",-96.581077,39.188648
University of Wisconsin (UW) - Platteville,Midwestern,"$45,800","$78,500","$48,400","$61,200","$100,000","$139,000",-90.492709,42.733936
Wittenberg University,Midwestern,"$39,200","$78,200",N/A,"$54,100","$131,000",N/A,-83.815445,39.934029
North Dakota State University (NDSU),Midwestern,"$45,100","$77,800","$39,000","$55,800","$100,000","$123,000",-96.800838,46.893127
Grinnell College,Midwestern,"$42,600","$76,600",N/A,"$65,100","$116,000",N/A,-92.721246,41.747048
Wayne State University,Midwestern,"$42,800","$76,100","$40,100","$56,200","$101,000","$139,000",-83.072864,42.35861
University of Toledo,Midwestern,"$43,100","$75,900","$40,100","$54,100","$100,000","$133,000",-83.614714,41.660572
University of Wisconsin (UW) - Whitewater,Midwestern,"$40,800","$75,500","$38,200","$53,500","$99,300","$150,000",-88.742368,42.835563
Minnesota State University - Mankato,Midwestern,"$43,300","$74,700","$39,500","$53,800","$95,700","$140,000",-93.99945,44.146712
University of Wisconsin (UW) - Milwaukee,Midwestern,"$42,300","$74,600","$40,600","$54,000","$93,700","$123,000",-87.880488,43.076848
Western Michigan University (WMU),Midwestern,"$42,300","$73,800","$40,100","$52,500","$103,000","$135,000",-85.61512,42.282589
South Dakota State University (SDSU),Midwestern,"$41,100","$73,500","$34,100","$49,900","$99,400","$129,000",-96.782139,44.317485
Ohio University,Midwestern,"$42,200","$73,400","$36,600","$52,800","$106,000","$150,000",-82.100985,39.326798
Illinois State University,Midwestern,"$42,000","$73,400","$39,100","$55,200","$105,000","$142,000",-88.990058,40.509403
Cleveland State University,Midwestern,"$43,500","$73,100","$39,500","$51,600","$97,000","$137,000",-81.673052,41.502918
University of Nebraska at Omaha,Midwestern,"$41,500","$72,600","$39,500","$54,400","$97,400","$126,000",-96.010797,41.257746
Southern Illinois University Carbondale,Midwestern,"$43,000","$72,500","$38,300","$51,300","$99,300","$139,000",-89.217273,37.714193
Eastern Michigan University,Midwestern,"$40,300","$72,100","$37,900","$52,800","$95,400","$135,000",-83.624415,42.245996
Bowling Green State University,Midwestern,"$39,800","$72,100","$38,200","$51,800","$101,000","$146,000",-83.640896,41.375513
St. Cloud State University,Midwestern,"$41,800","$71,400","$38,700","$49,400","$101,000","$126,000",-94.153,45.552418
University of Wisconsin (UW) - Parkside,Midwestern,"$40,700","$71,400","$40,900","$53,100","$84,900","$119,000",-87.855231,42.647718
University of Akron,Midwestern,"$41,100","$70,300","$40,600","$53,300","$95,200","$127,000",-81.511679,41.078551
Missouri State University (MSU),Midwestern,"$36,100","$69,500","$33,300","$46,900","$102,000","$134,000",-93.276821,37.197983
University of Wisconsin (UW) - La Crosse,Midwestern,"$42,200","$69,300","$37,500","$47,200","$93,100","$133,000",-91.230149,43.815295
University of Wisconsin (UW) - Stout,Midwestern,"$43,600","$68,300","$40,900","$50,600","$91,600","$136,000",-91.926653,44.873187
Robert Morris College (RMC),Midwestern,"$38,500","$68,200","$37,300","$47,100","$95,000","$128,000",-80.210468,40.520415
University of Missouri - St. Louis (UMSL),Midwestern,"$41,400","$67,100","$36,800","$49,600","$97,600","$144,000",-90.308886,38.711297
University of Wisconsin (UW) - Oshkosh,Midwestern,"$39,300","$66,400","$37,700","$49,700","$90,100","$138,000",-88.549282,44.024985
University of Missouri - Kansas City (UMKC),Midwestern,"$38,900","$65,800","$36,300","$48,100","$95,800","$124,000",-94.578039,39.035366
University of Wisconsin (UW) - Eau Claire,Midwestern,"$41,400","$64,800","$35,000","$47,300","$93,100","$125,000",-91.500432,44.798431
Ball State University (BSU),Midwestern,"$39,100","$64,500","$35,500","$48,200","$89,300","$128,000",-85.409043,40.203431
Park University,Midwestern,"$44,300","$64,300","$37,200","$45,600","$86,400","$113,000",-94.677086,39.189477
University of Wisconsin (UW) - Stevens Point,Midwestern,"$39,800","$64,000","$38,400","$45,100","$95,400","$128,000",-89.570934,44.529582
Kent State University,Midwestern,"$38,700","$62,600","$36,100","$45,800","$87,000","$124,000",-81.342533,41.146653
University of Wisconsin (UW) - Green Bay,Midwestern,"$35,800","$60,600","$35,500","$46,800","$81,800","$102,000",-87.919973,44.532298
Indiana Wesleyan University (IWU),Midwestern,"$39,800","$58,500","$39,600","$47,800","$78,600","$93,400",-85.677881,40.5112
Pittsburg State University,Midwestern,"$40,400","$58,200","$25,600","$46,000","$84,600","$117,000",-94.704782,37.3913
Davenport University,Midwestern,"$39,700","$46,600","$31,600","$38,100","$65,600","$85,700",-85.529655,42.849713
Black Hills State University,Midwestern,"$35,300","$43,900",N/A,"$32,200","$60,900",N/A,-103.870966,44.494889
Rice University,Southern,"$64,000","$110,000","$55,900","$82,100","$141,000","$216,000",-95.402035,29.717897
Georgetown University,Southern,"$55,000","$110,000","$60,300","$85,800","$174,000","$248,000",-77.073463,38.908809
Duke University,Southern,"$58,900","$106,000","$56,000","$77,400","$149,000","$218,000",-78.937624,36.001135
Georgia Institute of Technology,Southern,"$58,300","$106,000","$67,200","$85,200","$137,000","$183,000",-84.394832,33.77242
Washington and Lee University,Southern,"$53,600","$104,000",N/A,"$82,800","$146,000",N/A,-79.443018,37.788939
Vanderbilt University,Southern,"$51,200","$104,000","$49,900","$68,100","$147,000","$222,000",-86.803369,36.14659
Davidson College,Southern,"$46,100","$104,000",N/A,"$70,500","$146,000",N/A,-80.845236,35.500006
University of Virginia (UVA),Southern,"$52,700","$103,000","$52,200","$71,800","$146,000","$215,000",-78.503428,38.035665
George Washington University (GWU),Southern,"$47,000","$97,900","$48,400","$69,600","$132,000","$194,000",-77.047871,38.89865
Texas A&M University,Southern,"$49,700","$96,100","$51,100","$71,300","$131,000","$171,000",-98.52417,29.304762
Tulane University,Southern,"$49,100","$95,800","$46,500","$64,400","$134,000","$185,000",-90.120409,29.939696
Virginia Polytechnic Institute and State University (Virginia Tech),Southern,"$53,500","$95,400","$50,600","$71,400","$124,000","$163,000",-80.423675,37.229012
"University of Maryland, College Park",Southern,"$52,000","$95,000","$50,400","$68,300","$126,000","$166,000",-76.944721,38.988178
University of Richmond,Southern,"$48,600","$94,600","$44,500","$59,400","$151,000","$211,000",-77.538702,37.577625
University of Texas (UT) - Austin,Southern,"$49,700","$93,900","$50,100","$67,400","$129,000","$188,000",-97.739291,30.28609
Emory University,Southern,"$52,000","$91,600","$52,500","$63,300","$128,000","$192,000",-84.325512,33.790183
"American University, Washington D.C.",Southern,"$45,300","$90,800","$45,200","$62,400","$134,000","$169,000",-77.090106,38.937802
University of Tulsa,Southern,"$42,400","$88,700","$42,300","$60,300","$120,000","$197,000",-95.945175,36.151887
Baylor University,Southern,"$48,300","$88,600","$46,300","$60,700","$130,000","$200,000",-97.119359,31.545956
University of Florida (UF),Southern,"$47,100","$87,900","$45,400","$62,900","$120,000","$172,000",-82.347911,29.64629
Louisiana State University (LSU),Southern,"$46,900","$87,800","$43,700","$61,300","$120,000","$165,000",-91.178921,30.414986
George Mason University,Southern,"$47,800","$86,900","$51,300","$67,200","$114,000","$150,000",-77.30794,38.83088
Clemson University,Southern,"$48,400","$86,000","$50,500","$61,800","$111,000","$150,000",-82.835114,34.679381
University of Georgia (UGA),Southern,"$44,100","$86,000","$43,100","$57,800","$118,000","$164,000",-83.374039,33.956262
Auburn University,Southern,"$45,400","$84,700","$45,400","$62,700","$109,000","$145,000",-85.488258,32.599378
University of Delaware,Southern,"$45,900","$84,500","$44,500","$64,000","$119,000","$165,000",-75.752822,39.679577
Randolph-Macon College,Southern,"$42,600","$83,600",N/A,"$54,100","$123,000",N/A,-77.478416,37.76043
North Carolina State University (NCSU),Southern,"$47,200","$83,300","$49,200","$64,800","$112,000","$153,000",-78.674517,35.785111
University of Oklahoma,Southern,"$44,700","$82,900","$41,200","$60,300","$114,000","$167,000",-97.445692,35.208152
University of Arkansas,Southern,"$44,100","$82,800","$43,200","$60,700","$113,000","$160,000",-94.176981,36.070009
University of Alabama at Huntsville (UAH),Southern,"$43,100","$82,700","$46,100","$67,800","$106,000","$132,000",-86.640449,34.724557
Howard University,Southern,"$46,900","$81,800","$43,300","$60,000","$109,000","$138,000",-77.019478,38.920739
University of North Carolina at Chapel Hill (UNCH),Southern,"$42,900","$81,500","$43,400","$57,500","$117,000","$155,000",-79.050969,35.911769
"University of Alabama, Tuscaloosa",Southern,"$41,300","$81,400","$40,100","$56,500","$117,000","$161,000",-87.545766,33.2144
University of Texas at Arlington (UTA),Southern,"$45,400","$80,800","$46,400","$61,200","$106,000","$138,000",-97.115087,32.728437
Oklahoma State University,Southern,"$42,800","$80,700","$40,100","$56,500","$114,000","$151,000",-97.583291,36.123085
Tennessee Technological University,Southern,"$46,200","$80,000","$42,100","$62,600","$99,500","$121,000",-85.503957,36.174659
University of Houston (UH),Southern,"$46,000","$79,900","$42,000","$56,200","$106,000","$141,000",-95.343537,29.720393
University of Mississippi,Southern,"$41,400","$79,700","$40,400","$53,500","$108,000","$186,000",-89.53743,34.36553
Lamar University,Southern,"$46,500","$79,400","$38,700","$51,600","$114,000","$158,000",-94.07224,38.06889
Mississippi State University (MSU),Southern,"$44,500","$79,300","$43,300","$58,800","$108,000","$151,000",-88.79014,33.45485
University of Kentucky (UK),Southern,"$42,800","$78,300","$43,000","$57,300","$107,000","$149,000",-84.50475,38.03891
Texas Christian University (TCU),Southern,"$45,100","$78,100","$42,600","$56,600","$122,000","$183,000",-97.36154,32.70957
West Virginia University (WVU),Southern,"$43,100","$78,100","$39,700","$55,700","$106,000","$141,000",-79.95439,39.63437
University of Maryland Baltimore County (UMBC),Southern,"$47,000","$77,800","$46,900","$59,100","$105,000","$130,000",-76.71161,39.25669
University of Louisiana (UL) at Lafayette,Southern,"$41,100","$76,300","$42,000","$54,500","$107,000","$163,000",-92.01941,30.21528
Florida International University (FIU),Southern,"$43,200","$75,500","$40,500","$55,800","$98,200","$136,000",-80.37759,25.75711
University of Tennessee,Southern,"$43,800","$74,600","$41,900","$53,200","$106,000","$153,000",-85.29981,35.04825
University of Arkansas - Monticello (UAM),Southern,"$39,200","$74,500",N/A,"$46,100","$110,000",N/A,-91.81115,33.59091
University of North Carolina at Charlotte (UNCC),Southern,"$43,100","$74,000","$38,200","$53,200","$99,500","$133,000",-80.73092,35.30602
Georgia State University,Southern,"$41,800","$74,000","$43,000","$55,300","$99,900","$145,000",-84.38667,33.75270
LeTourneau University,Southern,"$49,500","$73,800","$41,200","$52,700","$95,200","$126,000",-94.72726,32.46766
Florida State University (FSU),Southern,"$42,100","$73,000","$39,600","$52,800","$107,000","$156,000",-84.29192,30.44076
University of Texas at El Paso (UTEP),Southern,"$43,400","$72,100","$37,700","$50,400","$99,500","$133,000",-106.5036,31.77170
University of Central Florida (UCF),Southern,"$42,600","$71,700","$39,500","$51,500","$98,400","$125,000",-81.1988,28.60106
University of South Carolina,Southern,"$40,000","$71,700","$36,300","$49,900","$98,400","$131,000",-81.7679,33.57292
Florida Atlantic University (FAU),Southern,"$42,600","$71,100","$40,700","$53,000","$99,500","$137,000",-80.10298,26.37242
University of South Florida (USF),Southern,"$41,100","$71,100","$39,600","$51,500","$98,100","$131,000",-82.41323,28.06146
University of Texas at San Antonio (UTSA),Southern,"$42,500","$70,700","$39,100","$49,800","$92,700","$121,000",-98.62139,29.58242
University of Alabama at Birmingham (UAB),Southern,"$39,200","$70,100","$43,000","$53,400","$91,400","$125,000",-86.79935,33.5057
University of Memphis (U of M),Southern,"$41,400","$69,700","$36,100","$49,100","$93,500","$127,000",-89.93807,35.11888
Appalachian State University,Southern,"$40,400","$69,100","$37,200","$50,400","$90,800","$115,000",-81.68023,36.21484
Virginia Commonwealth University (VCU),Southern,"$42,000","$68,400","$37,400","$51,900","$100,000","$123,000",-77.4536,37.54763
East Carolina University (ECU),Southern,"$40,200","$67,500","$38,400","$52,000","$98,700","$151,000",-77.36829,35.60719
Western Carolina University,Southern,"$36,900","$66,600","$39,000","$49,500","$94,400","$133,000",-83.18626,35.30898
Jacksonville University,Southern,"$46,700","$66,200","$36,700","$47,200","$88,500","$121,000",-81.60706,30.35035
University of North Carolina at Wilmington (UNCW),Southern,"$37,500","$64,400","$32,100","$46,600","$97,100","$129,000",-77.87553,34.22522
Oklahoma City University,Southern,"$40,000","$64,300",N/A,"$45,400","$80,600",N/A,-97.54124,35.49527
Arkansas State University (ASU),Southern,"$38,700","$63,300","$33,600","$45,300","$83,900","$118,000",-90.67999,35.84239
Tarleton State University (TSU),Southern,"$40,800","$62,400","$32,100","$47,400","$80,400","$126,000",-98.21487,32.21499
Morehead State University,Southern,"$34,800","$60,600","$34,300","$46,500","$72,000","$91,300",-83.43402,38.18677
Mississippi College,Southern,"$35,400","$60,400",N/A,"$43,900","$80,400",N/A,-90.32982,32.33552
Dallas Baptist University,Southern,"$39,400","$60,200","$38,500","$50,300","$81,800","$98,100",-96.94701,32.71002
Austin Peay State University,Southern,"$37,700","$59,200","$32,200","$40,500","$73,900","$96,200",-87.35408,36.53332
Saint Leo University,Southern,"$40,900","$57,800","$34,400","$41,800","$80,600","$113,000",-82.2578,28.33678
Tusculum College,Southern,"$36,900","$55,500","$36,200","$43,000","$87,300","$124,000",-82.76172,36.17256
Virginia Wesleyan College (VWC),Southern,"$34,600","$54,900",N/A,"$37,100","$88,900",N/A,-76.18606,36.86842
"Lee University (Cleveland, TN)",Southern,"$34,500","$53,900",N/A,"$44,500","$76,800",N/A,-84.87002,35.16617
Florida Metropolitan University (FMU),Southern,"$36,600","$51,000","$32,800","$36,800","$70,400","$102,000",-74.03002,40.89616
Dartmouth College,Northeastern,"$58,000","$134,000","$63,100","$90,200","$234,000","$321,000",-72.28995,43.70412
Princeton University,Northeastern,"$66,500","$131,000","$68,900","$100,000","$190,000","$261,000",-74.65936,40.34873
Massachusetts Institute of Technology (MIT),Northeastern,"$72,200","$126,000","$76,800","$99,200","$168,000","$220,000",-71.09212,42.3601
Yale University,Northeastern,"$59,100","$126,000","$58,000","$80,600","$198,000","$326,000",-72.92669,41.31116
Harvard University,Northeastern,"$63,400","$124,000","$54,800","$86,200","$179,000","$288,000",-71.11831,42.37447
University of Pennsylvania,Northeastern,"$60,900","$120,000","$55,900","$79,200","$192,000","$282,000",-75.19391,39.95093
"Polytechnic University of New York, Brooklyn",Northeastern,"$62,400","$114,000","$66,800","$94,300","$143,000","$190,000",-81.25394,28.55158
Cooper Union,Northeastern,"$62,200","$114,000",N/A,"$80,200","$142,000",N/A,-73.99052,40.72938
Worcester Polytechnic Institute (WPI),Northeastern,"$61,000","$114,000","$80,000","$91,200","$137,000","$180,000",-71.80879,42.27507
Carnegie Mellon University (CMU),Northeastern,"$61,800","$111,000","$63,300","$80,100","$150,000","$209,000",-79.94291,40.44462
Rensselaer Polytechnic Institute (RPI),Northeastern,"$61,100","$110,000","$71,600","$85,500","$140,000","$182,000",-73.67877,42.72898
Cornell University,Northeastern,"$60,300","$110,000","$56,800","$79,800","$160,000","$210,000",-76.48308,42.4472
Bucknell University,Northeastern,"$54,100","$110,000","$62,800","$80,600","$156,000","$251,000",-76.88262,40.95432
Brown University,Northeastern,"$56,200","$109,000","$55,400","$74,400","$159,000","$228,000",-71.40385,41.82617
Colgate University,Northeastern,"$52,800","$108,000","$60,000","$76,700","$167,000","$265,000",-75.535,42.8188
Columbia University,Northeastern,"$59,400","$107,000","$50,300","$71,900","$161,000","$241,000",-73.96188,40.80829
Amherst College,Northeastern,"$54,500","$107,000",N/A,"$84,900","$162,000",N/A,-72.51849,42.37246
Lafayette College,Northeastern,"$53,900","$107,000","$70,600","$79,300","$144,000","$204,000",-75.20979,40.69956
Bowdoin College,Northeastern,"$48,100","$107,000",N/A,"$74,600","$146,000",N/A,-69.96394,43.90713
College of the Holy Cross,Northeastern,"$50,200","$106,000",N/A,"$65,600","$143,000",N/A,-71.80863,42.23894
Stevens Institute of Technology,Northeastern,"$60,600","$105,000","$68,700","$81,900","$138,000","$185,000",-74.02533,40.74478
Lehigh University,Northeastern,"$59,200","$105,000","$69,500","$85,000","$160,000","$229,000",-75.37889,40.60716
Swarthmore College,Northeastern,"$49,700","$104,000",N/A,"$67,200","$167,000",N/A,-75.35428,39.90516
Boston College,Northeastern,"$52,700","$103,000","$48,900","$70,000","$143,000","$195,000",-71.17149,42.33769
Williams College,Northeastern,"$51,700","$102,000",N/A,"$76,400","$143,000",N/A,-73.20313,42.71272
Villanova University,Northeastern,"$55,800","$101,000","$56,800","$76,200","$156,000","$226,000",-75.34546,40.03939
Fordham University,Northeastern,"$47,800","$99,900","$48,600","$65,900","$142,000","$198,000",-73.88271,40.85935
"Wesleyan University (Middletown, Connecticut)",Northeastern,"$46,500","$97,900","$42,000","$62,500","$126,000","$215,000",-72.65676,41.55678
Wentworth Institute of Technology,Northeastern,"$53,000","$96,700","$55,200","$74,000","$117,000","$153,000",-71.09498,42.33663
Bates College,Northeastern,"$47,300","$96,500",N/A,"$60,700","$162,000",N/A,-70.20333,44.1053
Binghamton University,Northeastern,"$53,600","$95,900","$50,900","$71,200","$146,000","$201,000",-75.97114,42.08805
Union College,Northeastern,"$47,200","$95,800","$48,700","$75,200","$135,000","$230,000",-83.88798,36.86907
New York University (NYU),Northeastern,"$50,300","$95,600","$47,500","$65,000","$142,000","$216,000",-73.99726,40.72945
Vassar College,Northeastern,"$46,000","$94,600",N/A,"$60,600","$123,000",N/A,-73.89435,41.68511
Middlebury College,Northeastern,"$47,700","$94,200",N/A,"$69,100","$129,000",N/A,-73.17607,44.00912
Mount Holyoke College,Northeastern,"$42,400","$94,200",N/A,"$57,100","$131,000",N/A,-72.57363,42.25759
Boston University,Northeastern,"$49,000","$93,900","$48,000","$64,900","$130,000","$193,000",-71.09984,42.34958
Drexel University,Northeastern,"$53,400","$93,500","$54,900","$72,500","$122,000","$161,000",-75.18874,39.95486
"St. John's University, New York",Northeastern,"$48,000","$93,400","$48,000","$65,400","$124,000","$181,000",-76.49140,38.98151
Long Island University,Northeastern,"$47,300","$93,200","$46,300","$62,100","$122,000","$169,000",-73.20028,40.82857
Stony Brook University,Northeastern,"$49,500","$93,000","$47,200","$67,100","$129,000","$181,000",-73.12046,40.91476
Franklin and Marshall College,Northeastern,"$49,100","$92,800",N/A,"$55,800","$185,000",N/A,-76.31904,40.04805
Hofstra University,Northeastern,"$46,800","$92,700","$48,900","$67,000","$135,000","$189,000",-73.60078,40.71596
State University of New York (SUNY) at Albany,Northeastern,"$44,500","$92,200","$47,000","$63,100","$135,000","$209,000",-74.08873,41.73721
Rutgers University,Northeastern,"$50,300","$91,800","$48,100","$65,100","$128,000","$176,000",-75.12530,39.94863
Pratt Institute,Northeastern,"$43,800","$89,900","$48,600","$65,400","$123,000","$155,000",-73.96215,40.69115
Pace University,Northeastern,"$53,200","$89,700","$44,200","$65,400","$129,000","$187,000",-74.00472,40.71101
Seton Hall University,Northeastern,"$48,900","$89,200","$55,700","$70,600","$133,000","$195,000",-74.24875,40.74286
Rider University,Northeastern,"$43,600","$88,900","$47,100","$63,100","$127,000","$150,000",-74.73783,40.2788
University of Connecticut (UConn),Northeastern,"$48,000","$88,800","$46,100","$66,400","$120,000","$162,000",-72.24995,41.80910
Providence College,Northeastern,"$48,000","$88,600","$42,800","$62,900","$138,000","$194,000",-71.43745,41.84274
University of Massachusetts (UMass) - Amherst,Northeastern,"$46,600","$88,200","$43,100","$61,300","$122,000","$168,000",-72.52673,42.38600
Ithaca College,Northeastern,"$42,700","$87,400","$50,200","$62,400","$128,000","$174,000",-76.49414,42.42215
University of Massachusetts (UMass) - Lowell,Northeastern,"$45,400","$86,600","$50,900","$65,000","$113,000","$158,000",-71.32508,42.65372
Northeastern University,Northeastern,"$50,500","$86,400","$47,100","$62,700","$117,000","$159,000",-71.08878,42.33999
Syracuse University,Northeastern,"$45,700","$85,900","$46,400","$59,400","$119,000","$178,000",-76.13698,43.04018
Colby College,Northeastern,"$46,400","$85,800",N/A,"$63,500","$129,000",N/A,-69.66337,44.56421
Gettysburg College,Northeastern,"$44,700","$85,800",N/A,"$66,300","$132,000",N/A,-77.23498,39.83609
Pennsylvania State University (PSU),Northeastern,"$49,900","$85,700","$46,300","$62,000","$117,000","$160,000",-77.86164,40.80073
University of Rhode Island (URI),Northeastern,"$43,900","$85,300","$45,400","$60,100","$112,000","$157,000",-71.52736,41.48469
Siena College,Northeastern,"$45,500","$85,200","$38,700","$58,400","$129,000","$189,000",-73.7526,42.7176
La Salle University (Philadelphia),Northeastern,"$43,400","$84,700","$45,300","$57,500","$106,000","$151,000",-75.15306,40.03798
Rochester Institute of Technology (RIT),Northeastern,"$48,900","$84,600","$45,000","$62,100","$112,000","$159,000",-77.67386,43.08419
Duquesne University,Northeastern,"$40,700","$84,400","$42,600","$59,500","$107,000","$131,000",-79.99305,40.4375
State University of New York (SUNY) at Farmingdale,Northeastern,"$47,300","$84,200","$50,200","$59,800","$110,000","$162,000",-74.08873,41.73721
Smith College,Northeastern,"$44,000","$83,900","$45,100","$59,800","$129,000","$184,000",-72.63810,42.31811
Hamilton College,Northeastern,"$49,200","$83,700",N/A,"$51,900","$123,000",N/A,-75.4082,43.05024
Wellesley College,Northeastern,"$42,800","$83,500",N/A,"$58,600","$125,000",N/A,-71.30661,42.29155
Widener University,Northeastern,"$52,900","$83,400","$42,600","$61,400","$106,000","$138,000",-75.35536,39.86169
University of New Haven,Northeastern,"$44,400","$82,900","$48,500","$66,100","$113,000","$157,000",-72.96147,41.29131
Dowling College,Northeastern,"$41,100","$82,800","$46,500","$60,600","$117,000","$142,000",-73.14813,40.74218
University of Vermont (UVM),Northeastern,"$44,800","$82,700","$44,700","$58,000","$122,000","$194,000",-73.19813,44.47926
State University of New York (SUNY) at Buffalo,Northeastern,"$46,200","$81,700","$45,900","$61,400","$110,000","$147,000",-74.08873,41.73721
State University of New York (SUNY) at Geneseo,Northeastern,"$42,300","$81,300","$39,300","$47,600","$117,000","$173,000",-74.08873,41.73721
Fashion Institute of Technology,Northeastern,"$42,800","$81,000","$38,800","$60,500","$106,000","$138,000",-73.99478,40.74731
Philadelphia University,Northeastern,"$45,100","$80,300","$45,800","$61,900","$108,000","$141,000",-75.19264,40.02288
Ursinus College,Northeastern,"$42,100","$80,000","$35,600","$54,300","$100,000","$160,000",-75.45565,40.19405
Adelphi University,Northeastern,"$40,600","$79,200","$44,200","$54,800","$114,000","$160,000",-73.65332,40.72144
Juniata College,Northeastern,"$41,800","$78,900",N/A,"$67,200","$110,000",N/A,-78.0152,40.49951
Fairleigh Dickinson University,Northeastern,"$45,700","$78,700","$40,200","$56,300","$112,000","$171,000",-74.03002,40.89616
University of New Hampshire (UNH),Northeastern,"$41,800","$78,300","$41,700","$56,400","$114,000","$147,000",-70.93451,43.13423
University of Massachusetts (UMass) - Boston,Northeastern,"$45,600","$78,200","$36,300","$53,800","$109,000","$151,000",-71.03687,42.31288
State University of New York (SUNY) at Oswego,Northeastern,"$38,000","$77,800","$40,400","$53,000","$115,000","$169,000",-74.08873,41.73721
University of Massachusetts (UMass) - Dartmouth,Northeastern,"$43,200","$77,700","$43,300","$56,200","$107,000","$132,000",-71.00553,41.62886
State University of New York (SUNY) at Oneonta,Northeastern,"$37,500","$76,700","$40,000","$54,300","$97,700","$155,000",-74.08873,41.73721
Quinnipiac University,Northeastern,"$43,000","$76,500","$47,900","$57,400","$117,000","$155,000",-72.89412,41.41891
State University of New York (SUNY) at Plattsburgh,Northeastern,"$40,800","$76,200","$38,400","$54,100","$105,000","$136,000",-74.08873,41.73721
Sacred Heart University,Northeastern,"$46,000","$75,300","$39,700","$54,800","$105,000","$150,000",-73.24461,41.22155
Skidmore College,Northeastern,"$41,600","$74,600",N/A,"$42,800","$147,000",N/A,-73.78534,43.09703
Moravian College,Northeastern,"$42,500","$74,400",N/A,"$56,700","$94,900",N/A,-75.38098,40.63089
Penn State - Harrisburg,Northeastern,"$45,700","$74,000","$44,000","$53,100","$104,000","$150,000",-76.74230,40.20377
Suffolk University,Northeastern,"$42,100","$74,000","$48,700","$57,800","$95,100","$145,000",-71.06179,42.35894
Fitchburg State College,Northeastern,"$42,400","$72,600","$43,300","$56,100","$99,600","$151,000",-71.78935,42.58935
Roger Williams University,Northeastern,"$42,000","$72,300","$39,800","$48,500","$102,000","$138,000",-71.26037,41.65021
University Of Maine,Northeastern,"$41,200","$72,100","$41,700","$55,600","$99,300","$141,000",-68.66933,44.89926
State University of New York (SUNY) at Potsdam,Northeastern,"$38,000","$70,300","$35,100","$51,200","$100,000","$179,000",-74.08873,41.73721
Niagara University,Northeastern,"$36,900","$69,700","$44,000","$57,000","$92,000","$128,000",-79.03669,43.13728
State University of New York (SUNY) at Fredonia,Northeastern,"$37,800","$66,200","$32,800","$44,200","$93,300","$181,000",-74.08873,41.73721
University of Southern Maine,Northeastern,"$39,400","$63,600","$40,400","$47,900","$85,700","$117,000",-70.276,43.66264
Mercy College,Northeastern,"$43,700","$62,600","$35,600","$47,300","$99,000","$134,000",-73.87457,41.02144